[
{
"store_name": "Banjara Hills",
"address": "Lower Ground Floor, GVK One, Road Number 1, Banjara Hills",
  "city": "Hyderabad",
  "Longitude": 78.45,
  "Latitude":  17.42
},
  {
    "store_name": "Banjara Hills",
    "address": "Lower Ground Floor, GVK One, Road Number 1, Banjara Hills",
    "city": "Hyderabad",
    "Longitude": 78.45,
    "Latitude":  17.42
  },
  {
    "store_name": "Banjara Hills",
    "address": "Lower Ground Floor, GVK One, Road Number 1, Banjara Hills",
    "city": "Hyderabad",
    "Longitude": 78.45,
    "Latitude":  17.42
  },{
  "store_name": "Banjara Hills",
  "address": "Lower Ground Floor, GVK One, Road Number 1, Banjara Hills",
  "city": "Hyderabad",
  "Longitude": 78.45,
  "Latitude":  17.42
},
  {
    "store_name": "Banjara Hills",
    "address": "Lower Ground Floor, GVK One, Road Number 1, Banjara Hills",
    "city": "Hyderabad",
    "Longitude": 78.45,
    "Latitude":  17.42
  },
  {
    "store_name": "Banjara Hills",
    "address": "Lower Ground Floor, GVK One, Road Number 1, Banjara Hills",
    "city": "Hyderabad",
    "Longitude": 78.45,
    "Latitude":  17.42
  },{
  "store_name": "Banjara Hills",
  "address": "Lower Ground Floor, GVK One, Road Number 1, Banjara Hills",
  "city": "Hyderabad",
  "Longitude": 78.45,
  "Latitude":  17.42
},
  {
    "store_name": "Banjara Hills",
    "address": "Lower Ground Floor, GVK One, Road Number 1, Banjara Hills",
    "city": "Hyderabad",
    "Longitude": 78.45,
    "Latitude":  17.42
  },
  {
    "store_name": "Banjara Hills",
    "address": "Lower Ground Floor, GVK One, Road Number 1, Banjara Hills",
    "city": "Hyderabad",
    "Longitude": 78.45,
    "Latitude":  17.42
  },
  {
    "store_name": "Banjara Hills",
    "address": "Lower Ground Floor, GVK One, Road Number 1, Banjara Hills",
    "city": "Hyderabad",
    "Longitude": 78.45,
    "Latitude":  17.42
  },
  {
    "store_name": "Banjara Hills",
    "address": "Lower Ground Floor, GVK One, Road Number 1, Banjara Hills",
    "city": "Hyderabad",
    "Longitude": 78.45,
    "Latitude":  17.42
  },
  {
    "store_name": "Banjara Hills",
    "address": "Lower Ground Floor, GVK One, Road Number 1, Banjara Hills",
    "city": "Hyderabad",
    "Longitude": 78.45,
    "Latitude":  17.42
  },
  {
    "store_name": "Banjara Hills",
    "address": "Lower Ground Floor, GVK One, Road Number 1, Banjara Hills",
    "city": "Hyderabad",
    "Longitude": 78.45,
    "Latitude":  17.42
  },
  {
    "store_name": "Banjara Hills",
    "address": "Lower Ground Floor, GVK One, Road Number 1, Banjara Hills",
    "city": "Hyderabad",
    "Longitude": 78.45,
    "Latitude":  17.42
  },
  {
    "store_name": "Banjara Hills",
    "address": "Lower Ground Floor, GVK One, Road Number 1, Banjara Hills",
    "city": "Hyderabad",
    "Longitude": 78.45,
    "Latitude":  17.42
  },
  {
    "store_name": "Banjara Hills",
    "address": "Lower Ground Floor, GVK One, Road Number 1, Banjara Hills",
    "city": "Hyderabad",
    "Longitude": 78.45,
    "Latitude":  17.42
  },
  {
    "store_name": "Banjara Hills",
    "address": "Lower Ground Floor, GVK One, Road Number 1, Banjara Hills",
    "city": "Hyderabad",
    "Longitude": 78.45,
    "Latitude":  17.42
  },
  {
    "store_name": "Banjara Hills",
    "address": "Lower Ground Floor, GVK One, Road Number 1, Banjara Hills",
    "city": "Hyderabad",
    "Longitude": 78.45,
    "Latitude":  17.42
  },
  {
    "store_name": "Banjara Hills",
    "address": "Lower Ground Floor, GVK One, Road Number 1, Banjara Hills",
    "city": "Hyderabad",
    "Longitude": 78.45,
    "Latitude":  17.42
  },
  {
    "store_name": "Banjara Hills",
    "address": "Lower Ground Floor, GVK One, Road Number 1, Banjara Hills",
    "city": "Hyderabad",
    "Longitude": 78.45,
    "Latitude":  17.42
  },
  {
    "store_name": "Banjara Hills",
    "address": "Lower Ground Floor, GVK One, Road Number 1, Banjara Hills",
    "city": "Hyderabad",
    "Longitude": 78.45,
    "Latitude":  17.42
  },
  {
    "store_name": "Banjara Hills",
    "address": "Lower Ground Floor, GVK One, Road Number 1, Banjara Hills",
    "city": "Hyderabad",
    "Longitude": 78.45,
    "Latitude":  17.42
  },
  {
    "store_name": "Banjara Hills",
    "address": "Lower Ground Floor, GVK One, Road Number 1, Banjara Hills",
    "city": "Hyderabad",
    "Longitude": 78.45,
    "Latitude":  17.42
  },
  {
    "store_name": "Banjara Hills",
    "address": "Lower Ground Floor, GVK One, Road Number 1, Banjara Hills",
    "city": "Hyderabad",
    "Longitude": 78.45,
    "Latitude":  17.42
  },
  {
    "store_name": "Banjara Hills",
    "address": "Lower Ground Floor, GVK One, Road Number 1, Banjara Hills",
    "city": "Hyderabad",
    "Longitude": 78.45,
    "Latitude":  17.42
  },
  {
    "store_name": "Banjara Hills",
    "address": "Lower Ground Floor, GVK One, Road Number 1, Banjara Hills",
    "city": "Hyderabad",
    "Longitude": 78.45,
    "Latitude":  17.42
  },
  {
    "store_name": "Banjara Hills",
    "address": "Lower Ground Floor, GVK One, Road Number 1, Banjara Hills",
    "city": "Hyderabad",
    "Longitude": 78.45,
    "Latitude":  17.42
  },
  {
    "store_name": "Banjara Hills",
    "address": "Lower Ground Floor, GVK One, Road Number 1, Banjara Hills",
    "city": "Hyderabad",
    "Longitude": 78.45,
    "Latitude":  17.42
  },
  {
    "store_name": "Banjara Hills",
    "address": "Lower Ground Floor, GVK One, Road Number 1, Banjara Hills",
    "city": "Hyderabad",
    "Longitude": 78.45,
    "Latitude":  17.42
  },
  {
    "store_name": "Banjara Hills",
    "address": "Lower Ground Floor, GVK One, Road Number 1, Banjara Hills",
    "city": "Hyderabad",
    "Longitude": 78.45,
    "Latitude":  17.42
  },
  {
    "store_name": "Banjara Hills",
    "address": "Lower Ground Floor, GVK One, Road Number 1, Banjara Hills",
    "city": "Hyderabad",
    "Longitude": 78.45,
    "Latitude":  17.42
  },
  {
    "store_name": "Banjara Hills",
    "address": "Lower Ground Floor, GVK One, Road Number 1, Banjara Hills",
    "city": "Hyderabad",
    "Longitude": 78.45,
    "Latitude":  17.42
  },
  {
    "store_name": "Banjara Hills",
    "address": "Lower Ground Floor, GVK One, Road Number 1, Banjara Hills",
    "city": "Hyderabad",
    "Longitude": 78.45,
    "Latitude":  17.42
  },
  {
    "store_name": "Banjara Hills",
    "address": "Lower Ground Floor, GVK One, Road Number 1, Banjara Hills",
    "city": "Hyderabad",
    "Longitude": 78.45,
    "Latitude":  17.42
  },

  {
    "store_name": "Banjara Hills",
    "address": "Lower Ground Floor, GVK One, Road Number 1, Banjara Hills",
    "city": "Hyderabad",
    "Longitude": 78.45,
    "Latitude":  17.42
  },
  {
    "store_name": "Banjara Hills",
    "address": "Lower Ground Floor, GVK One, Road Number 1, Banjara Hills",
    "city": "Hyderabad",
    "Longitude": 78.45,
    "Latitude":  17.42
  },{
  "store_name": "Banjara Hills",
  "address": "Lower Ground Floor, GVK One, Road Number 1, Banjara Hills",
  "city": "Hyderabad",
  "Longitude": 78.45,
  "Latitude":  17.42
}
  ,{
  "store_name": "Banjara Hills",
  "address": "Lower Ground Floor, GVK One, Road Number 1, Banjara Hills",
  "city": "Hyderabad",
  "Longitude": 78.45,
  "Latitude":  17.42
},{
  "store_name": "Banjara Hills",
  "address": "Lower Ground Floor, GVK One, Road Number 1, Banjara Hills",
  "city": "Hyderabad",
  "Longitude": 78.45,
  "Latitude":  17.42
},
  {
    "store_name": "Banjara Hills",
    "address": "Lower Ground Floor, GVK One, Road Number 1, Banjara Hills",
    "city": "Hyderabad",
    "Longitude": 78.45,
    "Latitude":  17.42
  },
  {
    "store_name": "Banjara Hills",
    "address": "Lower Ground Floor, GVK One, Road Number 1, Banjara Hills",
    "city": "Hyderabad",
    "Longitude": 78.45,
    "Latitude":  17.42
  },
  {
    "store_name": "Banjara Hills",
    "address": "Lower Ground Floor, GVK One, Road Number 1, Banjara Hills",
    "city": "Hyderabad",
    "Longitude": 78.45,
    "Latitude":  17.42
  },
  {
    "store_name": "Banjara Hills",
    "address": "Lower Ground Floor, GVK One, Road Number 1, Banjara Hills",
    "city": "Hyderabad",
    "Longitude": 78.45,
    "Latitude":  17.42
  },

  {
    "store_name": "Banjara Hills",
    "address": "Lower Ground Floor, GVK One, Road Number 1, Banjara Hills",
    "city": "Hyderabad",
    "Longitude": 78.45,
    "Latitude":  17.42
  }


]